[
	{
		"name":"Banovići",
		"locationId":0,
		"latitude":44.40417,
		"longitude":18.4475
	},
	{
		"name":"Banja Luka",
		"locationId":1,
		"latitude":44.7667,
		"longitude":17.1833
	},
	{
		"name":"Bihać",
		"locationId":2,
		"latitude":44.8167,
		"longitude":15.8667
	},
	{
		"name":"Bijeljina",
		"locationId":3,
		"latitude":44.75,
		"longitude":19.2167
	},
	{
		"name":"Bileća",
		"locationId":4,
		"latitude":42.86667,
		"longitude":18.43333
	},
	{
		"name":"Bosanski Brod",
		"locationId":5,
		"latitude":45.13333,
		"longitude":17.98333
	},
	{
		"name":"Bosanska Dubica",
		"locationId":6,
		"latitude":45.17667,
		"longitude":16.80944
	},
	{
		"name":"Bosanska Gradiška",
		"locationId":7,
		"latitude":45.14484,
		"longitude":17.25453
	},
	{
		"name":"Bosansko Grahovo",
		"locationId":8,
		"latitude":44.19667,
		"longitude":16.37667
	},
	{
		"name":"Bosanska Krupa",
		"locationId":9,
		"latitude":44.8833,
		"longitude":16.15
	},
	{
		"name":"Bosanski Novi",
		"locationId":10,
		"latitude":45.05,
		"longitude":16.38333
	},
	{
		"name":"Bosanski Petrovac",
		"locationId":11,
		"latitude":44.55,
		"longitude":16.3667
	},
	{
		"name":"Bosanski Šamac",
		"locationId":12,
		"latitude":45.06667,
		"longitude":18.46667
	},
	{
		"name":"Bratunac",
		"locationId":13,
		"latitude":44.1846,
		"longitude":19.3309
	},
	{
		"name":"Brčko",
		"locationId":14,
		"latitude":44.8783,
		"longitude":18.8092
	},
	{
		"name":"Breza",
		"locationId":15,
		"latitude":44.021,
		"longitude":18.261
	},
	{
		"name":"Bugojno",
		"locationId":16,
		"latitude":44.0572,
		"longitude":17.4508
	},
	{
		"name":"Busovača",
		"locationId":17,
		"latitude":44.1,
		"longitude":17.88333
	},
	{
		"name":"Bužim",
		"locationId":18,
		"latitude":45.06056,
		"longitude":16.01667
	},
	{
		"name":"Cazin",
		"locationId":19,
		"latitude":44.96667,
		"longitude":15.93333
	},
	{
		"name":"Čajniče",
		"locationId":20,
		"latitude":43.55,
		"longitude":19.16667
	},
	{
		"name":"Čapljina",
		"locationId":21,
		"latitude":43.11,
		"longitude":17.7
	},
	{
		"name":"Čelić",
		"locationId":22,
		"latitude":44.721,
		"longitude":18.8231
	},
	{
		"name":"Čelinac",
		"locationId":23,
		"latitude":44.725,
		"longitude":17.33
	},
	{
		"name":"Čitluk",
		"locationId":24,
		"latitude":43.23,
		"longitude":17.7
	},
	{
		"name":"Derventa",
		"locationId":25,
		"latitude":44.98,
		"longitude":17.91
	},
	{
		"name":"Doboj",
		"locationId":26,
		"latitude":44.73333,
		"longitude":18.13333
	},
	{
		"name":"Donji Vakuf",
		"locationId":27,
		"latitude":44.15,
		"longitude":17.4
	},
	{
		"name":"Drvar",
		"locationId":28,
		"latitude":44.3575,
		"longitude":16.3711
	},
	{
		"name":"Foča",
		"locationId":29,
		"latitude":43.5,
		"longitude":18.78333
	},
	{
		"name":"Fojnica",
		"locationId":30,
		"latitude":43.96667,
		"longitude":17.9
	},
	{
		"name":"Gacko",
		"locationId":31,
		"latitude":43.16667,
		"longitude":18.53333
	},
	{
		"name":"Glamoč",
		"locationId":32,
		"latitude":44.05,
		"longitude":16.85
	},
	{
		"name":"Goražde",
		"locationId":33,
		"latitude":43.66667,
		"longitude":18.97778
	},
	{
		"name":"Gornji Vakuf",
		"locationId":34,
		"latitude":43.93806,
		"longitude":17.58833
	},
	{
		"name":"Gračanica",
		"locationId":35,
		"latitude":44.70583,
		"longitude":18.30833
	},
	{
		"name":"Gradačac",
		"locationId":36,
		"latitude":44.8785,
		"longitude":18.4276
	},
	{
		"name":"Grude",
		"locationId":37,
		"latitude":43.3776,
		"longitude":17.3953
	},
	{
		"name":"Hadžići",
		"locationId":38,
		"latitude":43.82222,
		"longitude":18.20667
	},
	{
		"name":"Han-Pijesak",
		"locationId":39,
		"latitude":44.08333,
		"longitude":18.95
	},
	{
		"name":"Livno",
		"locationId":40,
		"latitude":43.82694,
		"longitude":17.00806
	},
	{
		"name":"Ilijaš",
		"locationId":41,
		"latitude":43.95833,
		"longitude":18.26667
	},
	{
		"name":"Jablanica",
		"locationId":42,
		"latitude":43.65833,
		"longitude":17.75833
	},
	{
		"name":"Jajce",
		"locationId":43,
		"latitude":44.34025,
		"longitude":17.25723
	},
	{
		"name":"Kakanj",
		"locationId":44,
		"latitude":44.13111,
		"longitude":18.09722
	},
	{
		"name":"Kalesija",
		"locationId":45,
		"latitude":44.44167,
		"longitude":18.875
	},
	{
		"name":"Kalinovik",
		"locationId":46,
		"latitude":43.5,
		"longitude":18.45
	},
	{
		"name":"Kiseljak",
		"locationId":47,
		"latitude":43.95,
		"longitude":18.08333
	},
	{
		"name":"Kladanj",
		"locationId":48,
		"latitude":44.225,
		"longitude":18.69444
	},
	{
		"name":"Ključ",
		"locationId":49,
		"latitude":44.5325,
		"longitude":16.7768
	},
	{
		"name":"Konjic",
		"locationId":50,
		"latitude":43.65,
		"longitude":17.967
	},
	{
		"name":"Kotor-Varoš",
		"locationId":51,
		"latitude":44.62222,
		"longitude":17.37028
	},
	{
		"name":"Kreševo",
		"locationId":52,
		"latitude":43.86667,
		"longitude":18.05
	},
	{
		"name":"Kupres",
		"locationId":53,
		"latitude":43.89,
		"longitude":17.27
	},
	{
		"name":"Laktaši",
		"locationId":54,
		"latitude":44.9,
		"longitude":17.3
	},
	{
		"name":"Lopare",
		"locationId":55,
		"latitude":44.63333,
		"longitude":18.85
	},
	{
		"name":"Lukavac",
		"locationId":56,
		"latitude":44.53333,
		"longitude":18.53333
	},
	{
		"name":"Ljubinje",
		"locationId":57,
		"latitude":42.95,
		"longitude":18.08333
	},
	{
		"name":"Ljubuški",
		"locationId":58,
		"latitude":43.18333,
		"longitude":17.53333
	},
	{
		"name":"Maglaj",
		"locationId":59,
		"latitude":44.55,
		"longitude":18.1
	},
	{
		"name":"Modriča",
		"locationId":60,
		"latitude":44.95667,
		"longitude":18.315
	},
	{
		"name":"Mostar",
		"locationId":61,
		"latitude":43.34944,
		"longitude":17.8125
	},
	{
		"name":"Mrkonjić-Grad",
		"locationId":62,
		"latitude":44.41667,
		"longitude":17.08333
	},
	{
		"name":"Neum",
		"locationId":63,
		"latitude":42.92333,
		"longitude":17.61556
	},
	{
		"name":"Nevesinje",
		"locationId":64,
		"latitude":43.25944,
		"longitude":18.12083
	},
	{
		"name":"Novi Travnik",
		"locationId":65,
		"latitude":44.16833,
		"longitude":17.65278
	},
	{
		"name":"Odžak",
		"locationId":66,
		"latitude":45.01056,
		"longitude":18.32639
	},
	{
		"name":"Olovo",
		"locationId":67,
		"latitude":44.1277,
		"longitude":18.5806
	},
	{
		"name":"Orašje",
		"locationId":68,
		"latitude":45.03366,
		"longitude":18.69334
	},
	{
		"name":"Pale",
		"locationId":69,
		"latitude":43.81664,
		"longitude":18.56949
	},
	{
		"name":"Posušje",
		"locationId":70,
		"latitude":43.47222,
		"longitude":17.32667
	},
	{
		"name":"Prijedor",
		"locationId":71,
		"latitude":44.97991,
		"longitude":16.71401
	},
	{
		"name":"Prnjavor",
		"locationId":72,
		"latitude":44.86667,
		"longitude":17.65
	},
	{
		"name":"Prozor",
		"locationId":73,
		"latitude":43.8222,
		"longitude":17.6092
	},
	{
		"name":"Rogatica",
		"locationId":74,
		"latitude":43.79894,
		"longitude":19.00363
	},
	{
		"name":"Rudo",
		"locationId":75,
		"latitude":43.6166642,
		"longitude":19.3666652
	},
	{
		"name":"Sanski Most",
		"locationId":76,
		"latitude":44.7667,
		"longitude":16.667
	},
	{
		"name":"Sarajevo",
		"locationId":77,
		"latitude":43.86667,
		"longitude":18.41667
	},
	{
		"name":"Skender-Vakuf",
		"locationId":78,
		"latitude":44.49071,
		"longitude":17.38161
	},
	{
		"name":"Sokolac",
		"locationId":79,
		"latitude":43.93817,
		"longitude":18.80079
	},
	{
		"name":"Srbac",
		"locationId":80,
		"latitude":45.1,
		"longitude":17.53333
	},
	{
		"name":"Srebrenica",
		"locationId":81,
		"latitude":44.1,
		"longitude":19.3
	},
	{
		"name":"Srebrenik",
		"locationId":82,
		"latitude":44.70306,
		"longitude":18.49278
	},
	{
		"name":"Stolac",
		"locationId":83,
		"latitude":43.08389,
		"longitude":17.95917
	},
	{
		"name":"Šekovići",
		"locationId":84,
		"latitude":44.299,
		"longitude":18.8553
	},
	{
		"name":"Šipovo",
		"locationId":85,
		"latitude":44.2825,
		"longitude":17.08556
	},
	{
		"name":"Široki Brijeg",
		"locationId":86,
		"latitude":43.3829,
		"longitude":17.59416
	},
	{
		"name":"Teslić",
		"locationId":87,
		"latitude":44.60667,
		"longitude":17.86
	},
	{
		"name":"Tešanj",
		"locationId":88,
		"latitude":44.61667,
		"longitude":17.98333
	},
	{
		"name":"Tomislav-Grad",
		"locationId":89,
		"latitude":43.7166638,
		"longitude":17.2333324
	},
	{
		"name":"Travnik",
		"locationId":90,
		"latitude":44.23333,
		"longitude":17.66667
	},
	{
		"name":"Trebinje",
		"locationId":91,
		"latitude":42.70889,
		"longitude":18.32167
	},
	{
		"name":"Trnovo",
		"locationId":92,
		"latitude":43.676908,
		"longitude":18.39387
	},
	{
		"name":"Tuzla",
		"locationId":93,
		"latitude":44.53806,
		"longitude":18.67611
	},
	{
		"name":"Ugljevik",
		"locationId":94,
		"latitude":44.69167,
		"longitude":18.99444
	},
	{
		"name":"Vareš",
		"locationId":95,
		"latitude":44.16444,
		"longitude":18.32833
	},
	{
		"name":"Velika Kladuša",
		"locationId":96,
		"latitude":45.16667,
		"longitude":15.8
	},
	{
		"name":"Visoko",
		"locationId":97,
		"latitude":43.98944,
		"longitude":18.18056
	},
	{
		"name":"Višegrad",
		"locationId":98,
		"latitude":43.78333,
		"longitude":19.28333
	},
	{
		"name":"Vitez",
		"locationId":99,
		"latitude":44.1585,
		"longitude":17.7885
	},
	{
		"name":"Vlasenica",
		"locationId":100,
		"latitude":44.18333,
		"longitude":18.93333
	},
	{
		"name":"Zavidovići",
		"locationId":101,
		"latitude":44.45,
		"longitude":18.15
	},
	{
		"name":"Zenica",
		"locationId":102,
		"latitude":44.2,
		"longitude":17.91667
	},
	{
		"name":"Zvornik",
		"locationId":103,
		"latitude":44.43341,
		"longitude":19.057337
	},
	{
		"name":"Žepa",
		"locationId":104,
		"latitude":43.9499962,
		"longitude":19.1166662
	},
	{
		"name":"Žepče",
		"locationId":105,
		"latitude":44.43333,
		"longitude":18.03333
	},
	{
		"name":"Živinice",
		"locationId":106,
		"latitude":44.45,
		"longitude":18.65
	},
	{
		"name":"Bijelo Polje",
		"locationId":107,
		"latitude":43.02917,
		"longitude":19.74556
	},
	{
		"name":"Gusinje",
		"locationId":108,
		"latitude":42.5619,
		"longitude":19.8339
	},
	{
		"name":"Nova Varoš",
		"locationId":109,
		"latitude":43.46667,
		"longitude":19.82028
	},
	{
		"name":"Novi Pazar",
		"locationId":110,
		"latitude":43.15,
		"longitude":20.51667
	},
	{
		"name":"Plav",
		"locationId":111,
		"latitude":42.59694,
		"longitude":19.94556
	},
	{
		"name":"Pljevlja",
		"locationId":112,
		"latitude":43.35662,
		"longitude":19.35021
	},
	{
		"name":"Priboj",
		"locationId":113,
		"latitude":43.56639,
		"longitude":19.53528
	},
	{
		"name":"Prijepolje",
		"locationId":114,
		"latitude":43.329464,
		"longitude":19.683005
	},
	{
		"name":"Rožaje",
		"locationId":115,
		"latitude":42.84423,
		"longitude":20.16788
	},
	{
		"name":"Sjenica",
		"locationId":116,
		"latitude":43.26667,
		"longitude":20
	},
	{
		"name":"Tutin",
		"locationId":117,
		"latitude":42.9875,
		"longitude":20.32556
	}
]